[
    {
        "idstation": "N8",
        "name": "สถานีหมอชิต",
        "location": "บริเวณหน้าสวนจตุจักร เป็นจุดเชื่อมต่อการเดินทางที่สำคัญของกรุงเทพฯ",
        "id_btsline": "2",
        "btsline": "เส้นทางรถไฟฟ้าบีทีเอส สายสุขุมวิท (สีเขียวอ่อน)",
        "dcode": "1030",
        "dname": "เขตจตุจักร",
        "station_co": "สถานีเชื่อมต่อเส้นทางรถไฟฟ้ามหานคร สายสีน้ำเงิน สถานี BL13",
        "lat": "13.80262297",
        "lng": "100.5538124",
        "type": "BTS"
    },
    {
        "idstation": "N7",
        "name": "สถานีสะพานควาย",
        "location": "โรงพยาบาลเปาโล-ที่ทำการไปรษณีย์สามเสน",
        "id_btsline": "2",
        "btsline": "เส้นทางรถไฟฟ้าบีทีเอส สายสุขุมวิท (สีเขียวอ่อน)",
        "dcode": "1014",
        "dname": "เขตพญาไท",
        "station_co": "",
        "lat": "13.79386254",
        "lng": "100.5497496",
        "type": "BTS"
    },
    {
        "idstation": "N5",
        "name": "สถานีอารีย์",
        "location": "บริเวณสามแยกซอยพหลโยธิน 7 (อารีย์)",
        "id_btsline": "2",
        "btsline": "เส้นทางรถไฟฟ้าบีทีเอส สายสุขุมวิท (สีเขียวอ่อน)",
        "dcode": "1014",
        "dname": "เขตพญาไท",
        "station_co": "",
        "lat": "13.77954984",
        "lng": "100.5445779",
        "type": "BTS"
    },
    {
        "idstation": "N4",
        "name": "สถานีสนามเป้า",
        "location": "บริเวณด้านหน้ากองพลทหารม้าที่ 2 รักษาพระองค์ ด้านทิศใต้ของซอยพหลโยธิน 3",
        "id_btsline": "2",
        "btsline": "เส้นทางรถไฟฟ้าบีทีเอส สายสุขุมวิท (สีเขียวอ่อน)",
        "dcode": "1014",
        "dname": "เขตพญาไท",
        "station_co": "",
        "lat": "13.77255111",
        "lng": "100.542072",
        "type": "BTS"
    },
    {
        "idstation": "N3",
        "name": "สถานีอนุสาวรีย์ชัยสมรภูมิ",
        "location": "บริเวณทิศใต้ของอนุสาวรีย์ชัยสมรภูมิ",
        "id_btsline": "2",
        "btsline": "เส้นทางรถไฟฟ้าบีทีเอส สายสุขุมวิท (สีเขียวอ่อน)",
        "dcode": "1037",
        "dname": "เขตราชเทวี",
        "station_co": "",
        "lat": "13.76270271",
        "lng": "100.5370322",
        "type": "BTS"
    },
    {
        "idstation": "N2",
        "name": "สถานีพญาไท",
        "location": "ด้านทิศใต้ของทางแยกพญาไท (จุดบรรจบถนนพญาไทและถนนศรีอยุธยา)",
        "id_btsline": "2",
        "btsline": "เส้นทางรถไฟฟ้าบีทีเอส สายสุขุมวิท (สีเขียวอ่อน)",
        "dcode": "1037",
        "dname": "เขตราชเทวี",
        "station_co": "สถานีเชื่อมต่อเส้นทางรถไฟฟ้าแอร์พอร์ต เรล ลิงก์ (Airport Rail Link)",
        "lat": "13.75695565",
        "lng": "100.5338228",
        "type": "BTS"
    },
    {
        "idstation": "N1",
        "name": "สถานีราชเทวี",
        "location": "ถนนพญาไท ด้านทิศใต้ของทางแยกราชเทวี จุดบรรจบถนนพญาไทและถนนเพชรบุรี ใกล้สะพานหัวช้าง",
        "id_btsline": "2",
        "btsline": "เส้นทางรถไฟฟ้าบีทีเอส สายสุขุมวิท (สีเขียวอ่อน)",
        "dcode": "1037",
        "dname": "เขตราชเทวี",
        "station_co": "สถานีเชื่อมต่อเส้นทางเรือโดยสารคลองแสนแสบ  ท่าสะพานหัวช้าง",
        "lat": "13.75181733",
        "lng": "100.5315607",
        "type": "BTS"
    },
    {
        "idstation": "W1",
        "name": "สถานีสนามกีฬาแห่งชาติ",
        "location": "หน้าสนามกีฬาแห่งชาติ",
        "id_btsline": "1",
        "btsline": "เส้นทางรถไฟฟ้าบีทีเอส สายสีลม (สีเขียวเข้ม)",
        "dcode": "1007",
        "dname": "เขตปทุมวัน",
        "station_co": "",
        "lat": "13.74650803",
        "lng": "100.5291682",
        "type": "BTS"
    },
    {
        "idstation": "CEN",
        "name": "สถานีสยาม",
        "location": "บนถนนพระรามที่ 1 ระหว่างทางแยกปทุมวัน (จุดบรรจบถนนพระรามที่ 1 และถนนพญาไท) กับทางแยกเฉลิมเผ่า",
        "id_btsline": "1",
        "btsline": "เส้นทางรถไฟฟ้าบีทีเอส สายสีลม (สีเขียวเข้ม)",
        "dcode": "1007",
        "dname": "เขตปทุมวัน",
        "station_co": "สถานีร่วมระหว่างเส้นทางรถไฟฟ้าบีทีเอส สายสีลม (สีเขียวเข้ม)กับเส้นทางรถไฟฟ้าบีทีเอส สายสุขุมวิท",
        "lat": "13.74565407",
        "lng": "100.5342208",
        "type": "BTS"
    },
    {
        "idstation": "S1",
        "name": "สถานีราชดำริ",
        "location": "ระหว่างทางแยกราชดำริซึ่งเป็นจุดบรรจบกับถนนสารสิน",
        "id_btsline": "1",
        "btsline": "เส้นทางรถไฟฟ้าบีทีเอส สายสีลม (สีเขียวเข้ม)",
        "dcode": "1007",
        "dname": "เขตปทุมวัน",
        "station_co": "",
        "lat": "13.73945669",
        "lng": "100.5394511",
        "type": "BTS"
    },
    {
        "idstation": "S2",
        "name": "สถานีศาลาแดง",
        "location": "ยกระดับเหนือถนนสีลม ใจกลางย่านธุรกิจถนนสีลม ใกล้กับทางแยกศาลาแดง",
        "id_btsline": "1",
        "btsline": "เส้นทางรถไฟฟ้าบีทีเอส สายสีลม (สีเขียวเข้ม)",
        "dcode": "1004",
        "dname": "เขตบางรัก",
        "station_co": "สถานีเชื่อมต่อเส้นทางรถไฟฟ้ามหานคร สายสีน้ำเงิน สถานี BL26",
        "lat": "13.72851545",
        "lng": "100.5342387",
        "type": "BTS"
    },
    {
        "idstation": "S3",
        "name": "สถานีช่องนนทรีย์",
        "location": "บนถนนนราธิวาสราชนครินทร์ บริเวณซอยพิพัฒน์ 2",
        "id_btsline": "1",
        "btsline": "เส้นทางรถไฟฟ้าบีทีเอส สายสีลม (สีเขียวเข้ม)",
        "dcode": "1004",
        "dname": "เขตบางรัก",
        "station_co": "สถานีเชื่อมต่อรถโดยสารด่วนพิเศษ สายสาทร–ราชพฤกษ์ สถานีสาทร",
        "lat": "13.72385423",
        "lng": "100.5293727",
        "type": "BTS"
    },
    {
        "idstation": "S5",
        "name": "สถานีสุรศักดิ์",
        "location": "หน้าสมาคมหอการค้าไทย-จีน",
        "id_btsline": "1",
        "btsline": "เส้นทางรถไฟฟ้าบีทีเอส สายสีลม (สีเขียวเข้ม)",
        "dcode": "1028",
        "dname": "เขตสาทร",
        "station_co": "",
        "lat": "13.71930141",
        "lng": "100.5215673",
        "type": "BTS"
    },
    {
        "idstation": "S6",
        "name": "สถานีสะพานตากสิน",
        "location": "เชิงสะพานสมเด็จเจ้าพระยาตากสิน(สาทร)",
        "id_btsline": "1",
        "btsline": "เส้นทางรถไฟฟ้าบีทีเอส สายสีลม (สีเขียวเข้ม)",
        "dcode": "1004",
        "dname": "เขตบางรัก",
        "station_co": "สถานีเชือมต่อเส้นทางเดินเรือด่วนเจ้าพระยา  ท่าสาทร",
        "lat": "13.7188135",
        "lng": "100.5141766",
        "type": "BTS"
    },
    {
        "idstation": "E1",
        "name": "สถานีชิดลม",
        "location": "ด้านทิศตะวันตกของทางแยกชิดลม จุดบรรจบถนนเพลินจิต, ถนนชิดลม และถนนหลังสวน ใกล้ทางแยกราชประสงค์",
        "id_btsline": "2",
        "btsline": "เส้นทางรถไฟฟ้าบีทีเอส สายสุขุมวิท (สีเขียวอ่อน)",
        "dcode": "1007",
        "dname": "เขตปทุมวัน",
        "station_co": "",
        "lat": "13.74409858",
        "lng": "100.5430322",
        "type": "BTS"
    },
    {
        "idstation": "E2",
        "name": "สถานีเพลินจิต",
        "location": "ด้านทิศตะวันออกของทางแยกเพลินจิต (จุดบรรจบถนนเพลินจิตและถนนวิทยุ) ใกล้จุดตัดทางพิเศษเฉลิมมหานคร",
        "id_btsline": "2",
        "btsline": "เส้นทางรถไฟฟ้าบีทีเอส สายสุขุมวิท (สีเขียวอ่อน)",
        "dcode": "1007",
        "dname": "เขตปทุมวัน",
        "station_co": "",
        "lat": "13.74302972",
        "lng": "100.5491559",
        "type": "BTS"
    },
    {
        "idstation": "E3",
        "name": "สถานีนานา",
        "location": "ต้นถนนสุขุมวิท บริเวณปากซอยสุขุมวิท 6 และซอยสุขุมวิท 9",
        "id_btsline": "2",
        "btsline": "เส้นทางรถไฟฟ้าบีทีเอส สายสุขุมวิท (สีเขียวอ่อน)",
        "dcode": "1039",
        "dname": "เขตวัฒนา",
        "station_co": "",
        "lat": "13.74063159",
        "lng": "100.5553355",
        "type": "BTS"
    },
    {
        "idstation": "E4",
        "name": "สถานีอโศก",
        "location": "ถนนสุขุมวิท ปากซอยสุขุมวิท 14 และซอยสุขุมวิท 19 ด้านทิศตะวันตกของทางแยกอโศกมนตรี",
        "id_btsline": "2",
        "btsline": "เส้นทางรถไฟฟ้าบีทีเอส สายสุขุมวิท (สีเขียวอ่อน)",
        "dcode": "1033",
        "dname": "เขตคลองเตย",
        "station_co": "สถานีเชื่อมต่อเส้นทางรถไฟฟ้ามหานคร สายสีน้ำเงิน สถานี BL22",
        "lat": "13.73701993",
        "lng": "100.560425",
        "type": "BTS"
    },
    {
        "idstation": "E5",
        "name": "สถานีพร้อมพงษ์",
        "location": "ถนนสุขุมวิท บริเวณปากซอยสุขุมวิท 24 (เกษม) และซอยสุขุมวิท 39 (พร้อมพงษ์)",
        "id_btsline": "2",
        "btsline": "เส้นทางรถไฟฟ้าบีทีเอส สายสุขุมวิท (สีเขียวอ่อน)",
        "dcode": "1039",
        "dname": "เขตวัฒนา",
        "station_co": "",
        "lat": "13.73051676",
        "lng": "100.5696098",
        "type": "BTS"
    },
    {
        "idstation": "E6",
        "name": "สถานีทองหล่อ",
        "location": "ถนนสุขุมวิท บริเวณปากซอยสุขุมวิท 55 (ทองหล่อ) และซอยสุขุมวิท 38 (สันติสุข)",
        "id_btsline": "2",
        "btsline": "เส้นทางรถไฟฟ้าบีทีเอส สายสุขุมวิท (สีเขียวอ่อน)",
        "dcode": "1033",
        "dname": "เขตคลองเตย",
        "station_co": "",
        "lat": "13.72429562",
        "lng": "100.5784631",
        "type": "BTS"
    },
    {
        "idstation": "E7",
        "name": "สถานีเอกมัย",
        "location": "บริเวณปากซอยสุขุมวิท 42 ด้านทิศตะวันออกของแยกเอกมัยใต้ จุดบรรจบถนนสุขุมวิทและซอยสุขุมวิท 63",
        "id_btsline": "2",
        "btsline": "เส้นทางรถไฟฟ้าบีทีเอส สายสุขุมวิท (สีเขียวอ่อน)",
        "dcode": "1033",
        "dname": "เขตคลองเตย",
        "station_co": "",
        "lat": "13.71955261",
        "lng": "100.5851253",
        "type": "BTS"
    },
    {
        "idstation": "E8",
        "name": "สถานีพระโขนง",
        "location": "จุดบรรจบถนนสุขุมวิท ถนนพระรามที่ 4 ถนนสุขุมวิท 71ระหว่างซอยสุขุมวิท 44/1-46 กับซอยสุขุมวิท 67-69",
        "id_btsline": "2",
        "btsline": "เส้นทางรถไฟฟ้าบีทีเอส สายสุขุมวิท (สีเขียวอ่อน)",
        "dcode": "1039",
        "dname": "เขตวัฒนา",
        "station_co": "",
        "lat": "13.71526531",
        "lng": "100.5911801",
        "type": "BTS"
    },
    {
        "idstation": "E9",
        "name": "สถานีอ่อนนุช",
        "location": "บริเวณทางแยกอ่อนนุช ระหว่างซอยสุขุมวิท 79 และซอยสุขุมวิท 81 กับซอยสุขุมวิท 50 และซอยสุขุมวิท 52",
        "id_btsline": "2",
        "btsline": "เส้นทางรถไฟฟ้าบีทีเอส สายสุขุมวิท (สีเขียวอ่อน)",
        "dcode": "1033",
        "dname": "เขตคลองเตย",
        "station_co": " ",
        "lat": "13.70562929",
        "lng": "100.6010353",
        "type": "BTS"
    },
    {
        "idstation": "S7",
        "name": "สถานีกรุงธนบุรี",
        "location": "ใกล้สะพานสมเด็จพระเจ้าตากสินและถนนเจริญกรุง",
        "id_btsline": "1",
        "btsline": "เส้นทางรถไฟฟ้าบีทีเอส สายสีลม (สีเขียวเข้ม)",
        "dcode": "1018",
        "dname": "เขตคลองสาน",
        "station_co": "สถานีเชื่อมต่อเส้นทางรถไฟฟ้า สายสีทอง สถานี G1",
        "lat": "13.72093655",
        "lng": "100.5025308",
        "type": "BTS"
    },
    {
        "idstation": "S8",
        "name": "สถานีวงเวียนใหญ่",
        "location": "ใกล้วงเวียนใหญ่",
        "id_btsline": "1",
        "btsline": "เส้นทางรถไฟฟ้าบีทีเอส สายสีลม (สีเขียวเข้ม)",
        "dcode": "1018",
        "dname": "เขตคลองสาน",
        "station_co": " ",
        "lat": "13.72107132",
        "lng": "100.495218",
        "type": "BTS"
    },
    {
        "idstation": "E10",
        "name": "สถานีบางจาก",
        "location": "บนถนนสุขุมวิท ระหว่างซอยสุขุมวิท 97 และซอยสุขุมวิท 99 กับซอยสุขุมวิท 60/2 และซอยสุขุมวิท 62",
        "id_btsline": "2",
        "btsline": "เส้นทางรถไฟฟ้าบีทีเอส สายสุขุมวิท (สีเขียวอ่อน)",
        "dcode": "1009",
        "dname": "เขตพระโขนง",
        "station_co": "",
        "lat": "13.69671589",
        "lng": "100.605357",
        "type": "BTS"
    },
    {
        "idstation": "E11",
        "name": "สถานีปุณณวิถี",
        "location": "นนสุขุมวิท บริเวณปากซอยสุขุมวิท 101 (ปุณณวิถี) และซอยสุขุมวิท 64",
        "id_btsline": "2",
        "btsline": "เส้นทางรถไฟฟ้าบีทีเอส สายสุขุมวิท (สีเขียวอ่อน)",
        "dcode": "1009",
        "dname": "เขตพระโขนง",
        "station_co": "",
        "lat": "13.68930755",
        "lng": "100.6089676",
        "type": "BTS"
    },
    {
        "idstation": "E12",
        "name": "สถานีอุดมสุข",
        "location": "ถนนสุขุมวิท ระหว่างซอยสุขุมวิท 101/3 กับถนนอุดมสุข (สุขุมวิท 103)",
        "id_btsline": "2",
        "btsline": "เส้นทางรถไฟฟ้าบีทีเอส สายสุขุมวิท (สีเขียวอ่อน)",
        "dcode": "1047",
        "dname": "เขตบางนา",
        "station_co": "",
        "lat": "13.6798494",
        "lng": "100.6094764",
        "type": "BTS"
    },
    {
        "idstation": "E13",
        "name": "สถานีบางนา",
        "location": "ถนนสุขุมวิท บริเวณสะพานข้ามคลองบางนา หน้ากรมอุตุนิยมวิทยาและศูนย์แสดงสินค้าไบเทค",
        "id_btsline": "2",
        "btsline": "เส้นทางรถไฟฟ้าบีทีเอส สายสุขุมวิท (สีเขียวอ่อน)",
        "dcode": "1047",
        "dname": "เขตบางนา",
        "station_co": "",
        "lat": "13.66812092",
        "lng": "100.6046455",
        "type": "BTS"
    },
    {
        "idstation": "E14",
        "name": "สถานีแบริ่ง",
        "location": "ถนนสุขุมวิท ระหว่างปากทางถนนลาซาล (สุขุมวิท 105) กับซอยสุขุมวิท 107",
        "id_btsline": "2",
        "btsline": "เส้นทางรถไฟฟ้าบีทีเอส สายสุขุมวิท (สีเขียวอ่อน)",
        "dcode": "1047",
        "dname": "เขตบางนา",
        "station_co": "",
        "lat": "13.66115213",
        "lng": "100.6017976",
        "type": "BTS"
    },
    {
        "idstation": "S9",
        "name": "สถานีโพธิ์นิมิตร",
        "location": "ถนนราชพฤกษ์ ใกล้สี่แยกตากสิน",
        "id_btsline": "1",
        "btsline": "เส้นทางรถไฟฟ้าบีทีเอส สายสีลม (สีเขียวเข้ม)",
        "dcode": "1015",
        "dname": "เขตธนบุรี",
        "station_co": "",
        "lat": "13.71921979",
        "lng": "100.4859694",
        "type": "BTS"
    },
    {
        "idstation": "S10",
        "name": "สถานีตลาดพลู",
        "location": "ถนนริมทางรถไฟและถนนเทอดไท",
        "id_btsline": "1",
        "btsline": "เส้นทางรถไฟฟ้าบีทีเอส สายสีลม (สีเขียวเข้ม)",
        "dcode": "1015",
        "dname": "เขตธนบุรี",
        "station_co": "สถานีเชื่อมต่อรถโดยสารด่วนพิเศษ สายสาทร–ราชพฤกษ์ สถานีราชพฤกษ์",
        "lat": "13.71403433",
        "lng": "100.4763857",
        "type": "BTS"
    },
    {
        "idstation": "S11",
        "name": "สถานีวุฒากาศ",
        "location": "บริเวณสี่แยกราชพฤกษ์-วุฒากาศ",
        "id_btsline": "1",
        "btsline": "เส้นทางรถไฟฟ้าบีทีเอส สายสีลม (สีเขียวเข้ม)",
        "dcode": "1015",
        "dname": "เขตธนบุรี",
        "station_co": "",
        "lat": "13.71222176",
        "lng": "100.4726205",
        "type": "BTS"
    },
    {
        "idstation": "S12",
        "name": "สถานีบางหว้า",
        "location": "บริเวณด้านข้างสะพานยกระดับข้ามทางแยกต่างระดับเพชรเกษม",
        "id_btsline": "1",
        "btsline": "เส้นทางรถไฟฟ้าบีทีเอส สายสีลม (สีเขียวเข้ม)",
        "dcode": "1022",
        "dname": "เขตภาษีเจริญ",
        "station_co": "สถานีเชื่อมต่อเส้นทางรถไฟฟ้ามหานคร สายสีน้ำเงิน สถานี BL34",
        "lat": "13.72078877",
        "lng": "100.4577966",
        "type": "BTS"
    },
    {
        "idstation": "N9",
        "name": "สถานีห้าแยกลาดพร้าว",
        "location": "บริเวณใกล้กับจุดบรรจบถนนลาดพร้าว และถนนหอวัง ด้านหน้าศูนย์การค้าเซ็นทรัล ลาดพร้าว และโรงเรียนหอวัง",
        "id_btsline": "2",
        "btsline": "เส้นทางรถไฟฟ้าบีทีเอส สายสุขุมวิท (สีเขียวอ่อน)",
        "dcode": "1030",
        "dname": "เขตจตุจักร",
        "station_co": "สถานีเชื่อมต่อเส้นทางรถไฟฟ้ามหานคร สายสีน้ำเงิน สถานี BL14",
        "lat": "13.81668984",
        "lng": "100.5620546",
        "type": "BTS"
    },
    {
        "idstation": "N10",
        "name": "สถานีพหลโยธิน 24",
        "location": "บริเวณจุดตัดระหว่างถนนรัชดาภิเษกและถนนพหลโยธิน (แยกรัชโยธิน)",
        "id_btsline": "2",
        "btsline": "เส้นทางรถไฟฟ้าบีทีเอส สายสุขุมวิท (สีเขียวอ่อน)",
        "dcode": "1030",
        "dname": "เขตจตุจักร",
        "station_co": "",
        "lat": "13.82413711",
        "lng": "100.566461",
        "type": "BTS"
    },
    {
        "idstation": "N11",
        "name": "สถานีรัชโยธิน",
        "location": "บริเวณเชิงสะพานข้ามแยกรัชโยธิน ใกล้กับโรงภาพยนตร์เมเจอร์ ซีนีเพล็กซ์ รัชโยธิน",
        "id_btsline": "2",
        "btsline": "เส้นทางรถไฟฟ้าบีทีเอส สายสุขุมวิท (สีเขียวอ่อน)",
        "dcode": "1030",
        "dname": "เขตจตุจักร",
        "station_co": "",
        "lat": "13.82975669",
        "lng": "100.5697176",
        "type": "BTS"
    },
    {
        "idstation": "N13",
        "name": "สถานีมหาวิทยาลัยเกษตรศาสตร์",
        "location": "บริเวณด้านหน้ามหาวิทยาลัยเกษตรศาสตร์ วิทยาเขตบางเขน",
        "id_btsline": "2",
        "btsline": "เส้นทางรถไฟฟ้าบีทีเอส สายสุขุมวิท (สีเขียวอ่อน)",
        "dcode": "1030",
        "dname": "เขตจตุจักร",
        "station_co": "",
        "lat": "13.84225543",
        "lng": "100.5771187",
        "type": "BTS"
    },
    {
        "idstation": "N12",
        "name": "สถานีเสนานิคม",
        "location": "บริเวณด้านหน้ากรมพัฒนาที่ดิน",
        "id_btsline": "2",
        "btsline": "เส้นทางรถไฟฟ้าบีทีเอส สายสุขุมวิท (สีเขียวอ่อน)",
        "dcode": "1030",
        "dname": "เขตจตุจักร",
        "station_co": "",
        "lat": "13.83639349",
        "lng": "100.5736196",
        "type": "BTS"
    },
    {
        "idstation": "N16",
        "name": "สถานีกรมทหารราบที่ 11",
        "location": "บริเวณด้านหน้ากรมทหารราบที่ 11 มหาดเล็กราชวัลลภรักษาพระองค์",
        "id_btsline": "2",
        "btsline": "เส้นทางรถไฟฟ้าบีทีเอส สายสุขุมวิท (สีเขียวอ่อน)",
        "dcode": "1005",
        "dname": "เขตบางเขน",
        "station_co": "",
        "lat": "13.86764879",
        "lng": "100.5920557",
        "type": "BTS"
    },
    {
        "idstation": "N15",
        "name": "สถานีบางบัว",
        "location": "บริเวณด้านหน้า มหาวิทยาลัยศรีปทุม และโรงเรียนบางบัว (เพ่งตั้งตรงจิตวิทยาคาร) ใกล้กับแยกบางบัว",
        "id_btsline": "2",
        "btsline": "เส้นทางรถไฟฟ้าบีทีเอส สายสุขุมวิท (สีเขียวอ่อน)",
        "dcode": "1005",
        "dname": "เขตบางเขน",
        "station_co": "",
        "lat": "13.85601494",
        "lng": "100.5851953",
        "type": "BTS"
    },
    {
        "idstation": "N14",
        "name": "สถานีกรมป่าไม้",
        "location": "บริเวณด้านหน้ากรมป่าไม้ และโรงเรียนสารวิทยา",
        "id_btsline": "2",
        "btsline": "เส้นทางรถไฟฟ้าบีทีเอส สายสุขุมวิท (สีเขียวอ่อน)",
        "dcode": "1030",
        "dname": "เขตจตุจักร",
        "station_co": "",
        "lat": "13.85025175",
        "lng": "100.5818259",
        "type": "BTS"
    },
    {
        "idstation": "G2",
        "name": "สถานีเจริญนคร",
        "location": "เจริญนคร",
        "id_btsline": "3",
        "btsline": "เส้นทางรถไฟฟ้า สายสีทอง",
        "dcode": "1018",
        "dname": "เขตคลองสาน",
        "station_co": "",
        "lat": "13.72646504",
        "lng": "100.509057",
        "type": "BTS"
    },
    {
        "idstation": "G3",
        "name": "สถานีคลองสาน",
        "location": "สมเด็จเจ้าพระยา",
        "id_btsline": "3",
        "btsline": "เส้นทางรถไฟฟ้า สายสีทอง",
        "dcode": "1018",
        "dname": "เขตคลองสาน",
        "station_co": "",
        "lat": "13.73038781",
        "lng": "100.5076304",
        "type": "BTS"
    },
    {
        "idstation": "S4",
        "name": "สถานีเซนต์หลุยส์",
        "location": "บริเวณปากซอยสาทร 11 (ซอยเซนต์หลุยส์ 3) ด้านหน้าอาคารเอไอเอ ทาวเวอร์",
        "id_btsline": "1",
        "btsline": "เส้นทางรถไฟฟ้าบีทีเอส สายสีลม (สีเขียวเข้ม)",
        "dcode": "1028",
        "dname": "เขตสาทร",
        "station_co": "",
        "lat": "13.72081548",
        "lng": "100.5266994",
        "type": "BTS"
    },
    {
        "idstation": "N24",
        "name": "สถานีคูคต",
        "location": "บริเวณสถานีตำรวจภูธรคูคต ในพื้นที่ตำบลคูคต อำเภอลำลูกกา จังหวัดปทุมธานี",
        "id_btsline": "2",
        "btsline": "เส้นทางรถไฟฟ้าบีทีเอส สายสุขุมวิท (สีเขียวอ่อน)",
        "dcode": " ",
        "dname": "",
        "station_co": "",
        "lat": "13.93238496",
        "lng": "100.6465697",
        "type": "BTS"
    },
    {
        "idstation": "N23",
        "name": "สถานีแยก คปอ.",
        "location": "บริเวณด้านหน้ากรมควบคุมการปฏิบัติการทางอากาศ",
        "id_btsline": "2",
        "btsline": "เส้นทางรถไฟฟ้าบีทีเอส สายสุขุมวิท (สีเขียวอ่อน)",
        "dcode": "1036",
        "dname": "เขตดอนเมือง",
        "station_co": "",
        "lat": "13.92504891",
        "lng": "100.6258727",
        "type": "BTS"
    },
    {
        "idstation": "N22",
        "name": "สถานีพิพิธภัณฑ์กองทัพอากาศ",
        "location": "ด้านหน้าฐานทัพอากาศดอนเมือง ในพื้นที่แขวงสนามบิน เขตดอนเมือง และแขวงคลองถนน เขตสายไหม",
        "id_btsline": "2",
        "btsline": "เส้นทางรถไฟฟ้าบีทีเอส สายสุขุมวิท (สีเขียวอ่อน)",
        "dcode": "1036",
        "dname": "เขตดอนเมือง",
        "station_co": "",
        "lat": "13.9178731",
        "lng": "100.6216492",
        "type": "BTS"
    },
    {
        "idstation": "N21",
        "name": "สถานีโรงพยาบาลภูมิพลอดุลยเดช",
        "location": "บริเวณด้านหน้ากรมแพทย์ทหารอากาศ โรงพยาบาลภูมิพลอดุลยเดช และฐานทัพอากาศดอนเมือง",
        "id_btsline": "2",
        "btsline": "เส้นทางรถไฟฟ้าบีทีเอส สายสุขุมวิท (สีเขียวอ่อน)",
        "dcode": "1036",
        "dname": "เขตดอนเมือง",
        "station_co": "",
        "lat": "13.91058043",
        "lng": "100.6173142",
        "type": "BTS"
    },
    {
        "idstation": "N20",
        "name": "สถานีสะพานใหม่",
        "location": "บริเวณด้านหน้าตลาดยิ่งเจริญพลาซ่า",
        "id_btsline": "2",
        "btsline": "เส้นทางรถไฟฟ้าบีทีเอส สายสุขุมวิท (สีเขียวอ่อน)",
        "dcode": "1005",
        "dname": "เขตบางเขน",
        "station_co": "",
        "lat": "13.8964893",
        "lng": "100.609037",
        "type": "BTS"
    },
    {
        "idstation": "N19",
        "name": "สถานีสายหยุด",
        "location": "บริเวณด้านหน้าซอยพหลโยธิน 69",
        "id_btsline": "2",
        "btsline": "เส้นทางรถไฟฟ้าบีทีเอส สายสุขุมวิท (สีเขียวอ่อน)",
        "dcode": "1005",
        "dname": "เขตบางเขน",
        "station_co": "",
        "lat": "13.88841275",
        "lng": "100.6042717",
        "type": "BTS"
    },
    {
        "idstation": "N18",
        "name": "สถานีพหลโยธิน 59",
        "location": "บริเวณด้านหน้าซอยพหลโยธิน 59 และซอยหมู่บ้านราชตฤณมัย กับหมู่บ้านฝนทองนิเวศน์",
        "id_btsline": "2",
        "btsline": "เส้นทางรถไฟฟ้าบีทีเอส สายสุขุมวิท (สีเขียวอ่อน)",
        "dcode": "1005",
        "dname": "เขตบางเขน",
        "station_co": "",
        "lat": "13.88251503",
        "lng": "100.6007986",
        "type": "BTS"
    },
    {
        "idstation": "N17",
        "name": "สถานีวัดพระศรีมหาธาตุ",
        "location": "บริเวณกลางวงเวียนอนุสาวรีย์พิทักษ์รัฐธรรมนูญ จุดตัดระหว่างถนนพหลโยธิน ถนนแจ้งวัฒนะ และถนนรามอินทรา",
        "id_btsline": "2",
        "btsline": "เส้นทางรถไฟฟ้าบีทีเอส สายสุขุมวิท (สีเขียวอ่อน)",
        "dcode": "1005",
        "dname": "เขตบางเขน",
        "station_co": "",
        "lat": "13.87525635",
        "lng": "100.596715",
        "type": "BTS"
    },
    {
        "idstation": "E15",
        "name": "สถานีสำโรง",
        "location": "ถนนสุขุมวิท ระหว่างสะพานข้ามคลองสำโรงกับทางแยกเทพารักษ์ ในพื้นที่จ.สมุทรปราการ",
        "id_btsline": "2",
        "btsline": "เส้นทางรถไฟฟ้าบีทีเอส สายสุขุมวิท (สีเขียวอ่อน)",
        "dcode": " ",
        "dname": "",
        "station_co": "สถานีเชื่อมต่อรถไฟฟ้ามหานคร สายสีเหลือง สถานี YL23",
        "lat": "13.64656537",
        "lng": "100.5958207",
        "type": "BTS"
    },
    {
        "idstation": "E16",
        "name": "สถานีปู่เจ้า",
        "location": "ถนนสุขุมวิท บริเวณปากซอยสุขุมวิท 115 ใกล้กับห้างสรรพสินค้าบิ๊กซี ในพื้นที่จ.สมุทรปราการ",
        "id_btsline": "2",
        "btsline": "เส้นทางรถไฟฟ้าบีทีเอส สายสุขุมวิท (สีเขียวอ่อน)",
        "dcode": " ",
        "dname": "",
        "station_co": "",
        "lat": "13.63738772",
        "lng": "100.5920527",
        "type": "BTS"
    },
    {
        "idstation": "E17",
        "name": "สถานีช้างเอราวัณ",
        "location": "ถนนสุขุมวิท บริเวณซอยสุขุมวิท 7 ในพื้นที่จ.สมุทรปราการ",
        "id_btsline": "2",
        "btsline": "เส้นทางรถไฟฟ้าบีทีเอส สายสุขุมวิท (สีเขียวอ่อน)",
        "dcode": " ",
        "dname": "",
        "station_co": "",
        "lat": "13.62147272",
        "lng": "100.590181",
        "type": "BTS"
    },
    {
        "idstation": "E18",
        "name": "สถานีโรงเรียนนายเรือ",
        "location": "ถนนสุขุมวิท บริเวณด้านหน้าโรงเรียนนายเรือ ในพื้นที่จ.สมุทรปราการ",
        "id_btsline": "2",
        "btsline": "เส้นทางรถไฟฟ้าบีทีเอส สายสุขุมวิท (สีเขียวอ่อน)",
        "dcode": " ",
        "dname": "",
        "station_co": "",
        "lat": "13.60848025",
        "lng": "100.5949182",
        "type": "BTS"
    },
    {
        "idstation": "E19",
        "name": "สถานีปากน้ำ",
        "location": "ถนนสุขุมวิท บริเวณหน้าวิทยาลัยสารพัดช่างสมุทรปราการ ในพื้นที่จ.สมุทรปราการ",
        "id_btsline": "2",
        "btsline": "เส้นทางรถไฟฟ้าบีทีเอส สายสุขุมวิท (สีเขียวอ่อน)",
        "dcode": " ",
        "dname": "",
        "station_co": "",
        "lat": "13.60216596",
        "lng": "100.597103",
        "type": "BTS"
    },
    {
        "idstation": "E20",
        "name": "สถานีศรีนครินทร์",
        "location": "ถนนสุขุมวิท บริเวณสะพานข้ามคลองบางปิ้งและทางแยกการไฟฟ้าสมุทรปราการ",
        "id_btsline": "2",
        "btsline": "เส้นทางรถไฟฟ้าบีทีเอส สายสุขุมวิท (สีเขียวอ่อน)",
        "dcode": " ",
        "dname": "",
        "station_co": "",
        "lat": "13.59196551",
        "lng": "100.6090107",
        "type": "BTS"
    },
    {
        "idstation": "E21",
        "name": "สถานีแพรกษา",
        "location": "ถนนสุขุมวิท บริเวณด้านหน้าโรงเรียนสมุทรปราการ",
        "id_btsline": "2",
        "btsline": "เส้นทางรถไฟฟ้าบีทีเอส สายสุขุมวิท (สีเขียวอ่อน)",
        "dcode": " ",
        "dname": "",
        "station_co": "",
        "lat": "13.58421744",
        "lng": "100.6078495",
        "type": "BTS"
    },
    {
        "idstation": "E22",
        "name": "สถานีสายลวด",
        "location": "ถนนสุขุมวิท บริเวณปากซอยเทศบาลบางปู 43 ใกล้ทางแยกสายลวด ในพื้นที่จ.สมุทรปราการ",
        "id_btsline": "2",
        "btsline": "เส้นทางรถไฟฟ้าบีทีเอส สายสุขุมวิท (สีเขียวอ่อน)",
        "dcode": " ",
        "dname": "",
        "station_co": "",
        "lat": "13.57779717",
        "lng": "100.6054316",
        "type": "BTS"
    },
    {
        "idstation": "E23",
        "name": "สถานีเคหะฯ",
        "location": "ถนนสุขุมวิท บริเวณปากซอยเทศบาลบางปู 50 ในพื้นที่จ.สมุทรปราการ",
        "id_btsline": "2",
        "btsline": "เส้นทางรถไฟฟ้าบีทีเอส สายสุขุมวิท (สีเขียวอ่อน)",
        "dcode": " ",
        "dname": "",
        "station_co": "",
        "lat": "13.56773098",
        "lng": "100.6077108",
        "type": "BTS"
    },
    {
        "idstation": "G1",
        "name": "สถานีกรุงธนบุรี",
        "location": "แขวงคลองต้นไทร เขตคลองสาน กรุงเทพมหานคร 10600",
        "id_btsline": "3",
        "btsline": "เส้นทางรถไฟฟ้า สายสีทอง",
        "dcode": "1018",
        "dname": "เขตคลองสาน",
        "station_co": "สถานีเชื่อมต่อเส้นทางรถไฟฟ้าบีทีเอส สายสีลม (สีเขียวเข้ม) สถานี S7",
        "lat": "13.72106499",
        "lng": "100.5037059",
        "type": "BTS"
    },
    {
        "id_station": "BL01",
        "name": "สถานีท่าพระ",
        "location": "ยกระดับเหนือแยกท่าพระ ซึ่งเป็นจุดตัดระหว่างถนนจรัญสนิทวงศ์ ถนนเพชรเกษม และถนนรัชดาภิเษกฝั่งใต้",
        "id_mrtline": "1",
        "mrtline": "เส้นทางรถไฟฟ้ามหานคร สายสีน้ำเงิน",
        "station_co": "",
        "dcode": "1016",
        "dname": "บางกอกใหญ่",
        "lat": "13.7296593",
        "lng": "100.4740885",
        "type": "MRT"
    },
    {
        "id_station": "BL02",
        "name": "สถานีจรัญฯ 13",
        "location": "ถนนจรัญสนิทวงศ์ บริเวณแยกพาณิชยการธนบุรี",
        "id_mrtline": "1",
        "mrtline": "เส้นทางรถไฟฟ้ามหานคร สายสีน้ำเงิน",
        "station_co": "",
        "dcode": "1016",
        "dname": "บางกอกใหญ่",
        "lat": "13.74005671",
        "lng": "100.4707321",
        "type": "MRT"
    },
    {
        "id_station": "BL03",
        "name": "สถานีไฟฉาย",
        "location": "ถนนจรัญสนิทวงศ์ บริเวณด้านเหนือของแยกไฟฉาย",
        "id_mrtline": "1",
        "mrtline": "เส้นทางรถไฟฟ้ามหานคร สายสีน้ำเงิน",
        "station_co": "",
        "dcode": "1020",
        "dname": "บางกอกน้อย",
        "lat": "13.7557305",
        "lng": "100.4693411",
        "type": "MRT"
    },
    {
        "id_station": "BL04",
        "name": "สถานีบางขุนนนท์",
        "location": "ถนนจรัญสนิทวงศ์ ระหว่างสี่แยกบางขุนนนท์",
        "id_mrtline": "1",
        "mrtline": "เส้นทางรถไฟฟ้ามหานคร สายสีน้ำเงิน",
        "station_co": "",
        "dcode": "1020",
        "dname": "บางกอกน้อย",
        "lat": "13.76334485",
        "lng": "100.4733652",
        "type": "MRT"
    },
    {
        "id_station": "BL05",
        "name": "สถานีบางยี่ขัน",
        "location": "ถนนจรัญสนิทวงศ์ หน้าปากซอยจรัญสนิทวงศ์ 42 บริเวณหน้าตลาดอินดี้ปิ่นเกล้า",
        "id_mrtline": "1",
        "mrtline": "เส้นทางรถไฟฟ้ามหานคร สายสีน้ำเงิน",
        "station_co": "",
        "dcode": "1025",
        "dname": "บางพลัด",
        "lat": "13.77747388",
        "lng": "100.4853472",
        "type": "MRT"
    },
    {
        "id_station": "BL06",
        "name": "สถานีสิรินธร",
        "location": "ยกระดับเหนือถนนจรัญสนิทวงศ์ กรุงเทพมหานคร",
        "id_mrtline": "1",
        "mrtline": "เส้นทางรถไฟฟ้ามหานคร สายสีน้ำเงิน",
        "station_co": "",
        "dcode": "1025",
        "dname": "บางพลัด",
        "lat": "13.783808",
        "lng": "100.4932301",
        "type": "MRT"
    },
    {
        "id_station": "BL07",
        "name": "สถานีบางพลัด",
        "location": "ถนนจรัญสนิทวงศ์ บริเวณด้านหน้าธนาคารกสิกรไทย สาขาบางพลัด",
        "id_mrtline": "1",
        "mrtline": "เส้นทางรถไฟฟ้ามหานคร สายสีน้ำเงิน",
        "station_co": "",
        "dcode": "1025",
        "dname": "บางพลัด",
        "lat": "13.79238778",
        "lng": "100.5048644",
        "type": "MRT"
    },
    {
        "id_station": "BL08",
        "name": "สถานีบางอ้อ",
        "location": "ถนนจรัญสนิทวงศ์บริเวณซอยจรัญสนิทวงศ์ 88",
        "id_mrtline": "1",
        "mrtline": "เส้นทางรถไฟฟ้ามหานคร สายสีน้ำเงิน",
        "station_co": "",
        "dcode": "1025",
        "dname": "บางพลัด",
        "lat": "13.79899246",
        "lng": "100.5097903",
        "type": "MRT"
    },
    {
        "id_station": "BL09",
        "name": "สถานีบางโพ",
        "location": "ถนนประชาราษฎร์ สาย 2 บริเวณสี่แยกบางโพ",
        "id_mrtline": "1",
        "mrtline": "เส้นทางรถไฟฟ้ามหานคร สายสีน้ำเงิน",
        "station_co": "",
        "dcode": "1029",
        "dname": "บางซื่อ",
        "lat": "13.80640723",
        "lng": "100.5211039",
        "type": "MRT"
    },
    {
        "id_station": "BL11",
        "name": "สถานีบางซื่อ",
        "location": "ใกล้สถานีรถไฟบางซื่อ ถนนเทอดดำริ",
        "id_mrtline": "1",
        "mrtline": "เส้นทางรถไฟฟ้ามหานคร สายสีน้ำเงิน",
        "station_co": "",
        "dcode": "1030",
        "dname": "จตุจักร",
        "lat": "13.80235091",
        "lng": "100.5410375",
        "type": "MRT"
    },
    {
        "id_station": "BL12",
        "name": "สถานีกำแพงเพชร",
        "location": "ถนนกำแพงเพชร บริเวณสามแยกกำแพงเพชร 2 หน้าตลาด อ.ต.ก. และตลาดนัดจตุจักร",
        "id_mrtline": "1",
        "mrtline": "เส้นทางรถไฟฟ้ามหานคร สายสีน้ำเงิน",
        "station_co": "",
        "dcode": "1030",
        "dname": "จตุจักร",
        "lat": "13.79793257",
        "lng": "100.547936",
        "type": "MRT"
    },
    {
        "id_station": "BL13",
        "name": "สถานีสวนจตุจักร",
        "location": "ถนนพหลโยธิน ฝั่งทิศตะวันตก ในอาณาเขตสวนจตุจักรด้านทิศใต้ ตรงข้ามศูนย์ซ่อมบำรุงหมอชิต",
        "id_mrtline": "1",
        "mrtline": "เส้นทางรถไฟฟ้ามหานคร สายสีน้ำเงิน",
        "station_co": "",
        "dcode": "1030",
        "dname": "จตุจักร",
        "lat": "13.80295124",
        "lng": "100.5533613",
        "type": "MRT"
    },
    {
        "id_station": "BL14",
        "name": "สถานีพหลโยธิน",
        "location": "บริเวณห้าแยกลาดพร้าว จุดบรรจบถนนลาดพร้าว, ถนนพหลโยธิน และถนนวิภาวดีรังสิต",
        "id_mrtline": "1",
        "mrtline": "เส้นทางรถไฟฟ้ามหานคร สายสีน้ำเงิน",
        "station_co": "",
        "dcode": "1030",
        "dname": "จตุจักร",
        "lat": "13.81296882",
        "lng": "100.5615673",
        "type": "MRT"
    },
    {
        "id_station": "BL15",
        "name": "สถานีลาดพร้าว",
        "location": "ถนนลาดพร้าว บริเวณทิศตะวันตกของสี่แยกรัชดา-ลาดพร้าว จุดบรรจบถนนลาดพร้าวและถนนรัชดาภิเษก",
        "id_mrtline": "1",
        "mrtline": "เส้นทางรถไฟฟ้ามหานคร สายสีน้ำเงิน",
        "station_co": "",
        "dcode": "1030",
        "dname": "จตุจักร",
        "lat": "13.8065239",
        "lng": "100.572901",
        "type": "MRT"
    },
    {
        "id_station": "BL16",
        "name": "สถานีรัชดาภิเษก",
        "location": "ถนนรัชดาภิเษก บริเวณทิศเหนือของปากซอยโชคชัยร่วมมิตร และสะพานข้ามคลองบางซื่อ",
        "id_mrtline": "1",
        "mrtline": "เส้นทางรถไฟฟ้ามหานคร สายสีน้ำเงิน",
        "station_co": "",
        "dcode": "1026",
        "dname": "ดินแดง",
        "lat": "13.79895711",
        "lng": "100.5744781",
        "type": "MRT"
    },
    {
        "id_station": "BL17",
        "name": "สถานีสุทธิสาร",
        "location": "ถนนรัชดาภิเษก บริเวณกลางทางแยกรัชดา-สุทธิสาร",
        "id_mrtline": "1",
        "mrtline": "เส้นทางรถไฟฟ้ามหานคร สายสีน้ำเงิน",
        "station_co": "",
        "dcode": "1026",
        "dname": "ดินแดง",
        "lat": "13.78945997",
        "lng": "100.5740167",
        "type": "MRT"
    },
    {
        "id_station": "BL18",
        "name": "สถานีห้วยขวาง",
        "location": "ถนนรัชดาภิเษก บริเวณกลางแยกห้วยขวาง",
        "id_mrtline": "1",
        "mrtline": "เส้นทางรถไฟฟ้ามหานคร สายสีน้ำเงิน",
        "station_co": "",
        "dcode": "1026",
        "dname": "ดินแดง",
        "lat": "13.77869774",
        "lng": "100.5734915",
        "type": "MRT"
    },
    {
        "id_station": "BL19",
        "name": "สถานีศูนย์วัฒนธรรมแห่งประเทศไทย",
        "location": "ใต้ถนนรัชดาภิเษก บริเวณด้านหน้าศูนย์การค้าเอสพลานาด รัชดาภิเษก",
        "id_mrtline": "1",
        "mrtline": "เส้นทางรถไฟฟ้ามหานคร สายสีน้ำเงิน",
        "station_co": "",
        "dcode": "1026",
        "dname": "ดินแดง",
        "lat": "13.76630887",
        "lng": "100.5700702",
        "type": "MRT"
    },
    {
        "id_station": "BL20",
        "name": "สถานีพระราม 9",
        "location": "ถนนรัชดาภิเษก บริเวณทิศเหนือของสี่แยกพระราม 9",
        "id_mrtline": "1",
        "mrtline": "เส้นทางรถไฟฟ้ามหานคร สายสีน้ำเงิน",
        "station_co": "",
        "dcode": "1026",
        "dname": "ดินแดง",
        "lat": "13.75784279",
        "lng": "100.5652421",
        "type": "MRT"
    },
    {
        "id_station": "BL21",
        "name": "สถานีเพชรบุรี",
        "location": "ถนนรัชดาภิเษก (อโศก-ดินแดง) บริเวณทิศเหนือของสี่แยกอโศก-เพชรบุรี",
        "id_mrtline": "1",
        "mrtline": "เส้นทางรถไฟฟ้ามหานคร สายสีน้ำเงิน",
        "station_co": "",
        "dcode": "1037",
        "dname": "ราชเทวี",
        "lat": "13.74919525",
        "lng": "100.5633537",
        "type": "MRT"
    },
    {
        "id_station": "BL22",
        "name": "สถานีสุขุมวิท",
        "location": "ถนนอโศกมนตรี หน้าตลาดอโศก ด้านทิศเหนือของสี่แยกอโศกมนตรี",
        "id_mrtline": "1",
        "mrtline": "เส้นทางรถไฟฟ้ามหานคร สายสีน้ำเงิน",
        "station_co": "",
        "dcode": "1039",
        "dname": "วัฒนา",
        "lat": "13.73738427",
        "lng": "100.5614168",
        "type": "MRT"
    },
    {
        "id_station": "BL23",
        "name": "สถานีศูนย์การประชุมแห่งชาติสิริกิติ์",
        "location": "ถนนรัชดาภิเษกตัดใหม่ ด้านหน้าศูนย์การประชุมแห่งชาติสิริกิติ์",
        "id_mrtline": "1",
        "mrtline": "เส้นทางรถไฟฟ้ามหานคร สายสีน้ำเงิน",
        "station_co": "",
        "dcode": "1033",
        "dname": "คลองเตย",
        "lat": "13.72262377",
        "lng": "100.5599045",
        "type": "MRT"
    },
    {
        "id_station": "BL24",
        "name": "สถานีคลองเตย",
        "location": "ถนนพระรามที่ 4 ด้านหน้าสำนักงานการไฟฟ้านครหลวงเขตคลองเตย",
        "id_mrtline": "1",
        "mrtline": "เส้นทางรถไฟฟ้ามหานคร สายสีน้ำเงิน",
        "station_co": "",
        "dcode": "1033",
        "dname": "คลองเตย",
        "lat": "13.72229036",
        "lng": "100.5540033",
        "type": "MRT"
    },
    {
        "id_station": "BL25",
        "name": "สถานีลุมพินี",
        "location": "ถนนพระรามที่ 4 บริเวณทิศตะวันออกของสี่แยกวิทยุ จุดบรรจบของถนนวิทยุ และถนนสาทรเหนือ-ใต้",
        "id_mrtline": "1",
        "mrtline": "เส้นทางรถไฟฟ้ามหานคร สายสีน้ำเงิน",
        "station_co": "",
        "dcode": "1007",
        "dname": "ปทุมวัน",
        "lat": "13.7257317",
        "lng": "100.5457784",
        "type": "MRT"
    },
    {
        "id_station": "BL26",
        "name": "สถานีสีลม",
        "location": "ใต้ผิวถนนพระรามที่ 4 บริเวณสี่แยกศาลาแดงด้านทิศตะวันออก หน้าสวนลุมพินี",
        "id_mrtline": "1",
        "mrtline": "เส้นทางรถไฟฟ้ามหานคร สายสีน้ำเงิน",
        "station_co": "",
        "dcode": "1007",
        "dname": "ปทุมวัน",
        "lat": "13.72928274",
        "lng": "100.5373135",
        "type": "MRT"
    },
    {
        "id_station": "BL27",
        "name": "สถานีสามย่าน",
        "location": "ถนนพระรามที่ 4 บริเวณสี่แยกสามย่านด้านทิศตะวันออกหน้าวัดหัวลำโพง",
        "id_mrtline": "1",
        "mrtline": "เส้นทางรถไฟฟ้ามหานคร สายสีน้ำเงิน",
        "station_co": "",
        "dcode": "1007",
        "dname": "ปทุมวัน",
        "lat": "13.73222813",
        "lng": "100.5302684",
        "type": "MRT"
    },
    {
        "id_station": "BL28",
        "name": "สถานีหัวลำโพง",
        "location": "ใต้ถนนพระรามที่ 4 บริเวณแยกหัวลำโพง จุดบรรจบ ถนนพระรามที่ 4, ถนนรองเมือง",
        "id_mrtline": "1",
        "mrtline": "เส้นทางรถไฟฟ้ามหานคร สายสีน้ำเงิน",
        "station_co": "",
        "dcode": "1007",
        "dname": "ปทุมวัน",
        "lat": "13.73755186",
        "lng": "100.5171633",
        "type": "MRT"
    },
    {
        "id_station": "BL29",
        "name": "สถานีวัดมังกร",
        "location": "ถนนเจริญกรุง บริเวณสี่แยกแปลงนาม",
        "id_mrtline": "1",
        "mrtline": "เส้นทางรถไฟฟ้ามหานคร สายสีน้ำเงิน",
        "station_co": "",
        "dcode": "1008",
        "dname": "ป้อมปราบศัตรูพ่าย",
        "lat": "13.74228753",
        "lng": "100.5099535",
        "type": "MRT"
    },
    {
        "id_station": "BL30",
        "name": "สถานีสามยอด",
        "location": "ถนนเจริญกรุง ตั้งแต่บริเวณแยกสามยอด",
        "id_mrtline": "1",
        "mrtline": "เส้นทางรถไฟฟ้ามหานคร สายสีน้ำเงิน",
        "station_co": "",
        "dcode": "1001",
        "dname": "พระนคร  ",
        "lat": "13.74705362",
        "lng": "100.5021701",
        "type": "MRT"
    },
    {
        "id_station": "BL31",
        "name": "สถานีสนามไชย",
        "location": "ถนนสนามไชย ด้านทิศเหนือของแยกสะพานเจริญรัช 31 หรือปากคลองตลาด",
        "id_mrtline": "1",
        "mrtline": "เส้นทางรถไฟฟ้ามหานคร สายสีน้ำเงิน",
        "station_co": "",
        "dcode": "1001",
        "dname": "พระนคร  ",
        "lat": "13.74434176",
        "lng": "100.4947367",
        "type": "MRT"
    },
    {
        "id_station": "BL32",
        "name": "สถานีอิสรภาพ",
        "location": "ระหว่างซอยอิสรภาพ 23 (ซอยวัดราชสิทธาราม) และซอยอิสรภาพ 34 (ซอยพิเศษสุข)",
        "id_mrtline": "1",
        "mrtline": "เส้นทางรถไฟฟ้ามหานคร สายสีน้ำเงิน",
        "station_co": "",
        "dcode": "1016",
        "dname": "บางกอกใหญ่",
        "lat": "13.73831268",
        "lng": "100.4857197",
        "type": "MRT"
    },
    {
        "id_station": "BL33",
        "name": "สถานีบางไผ่",
        "location": "ถนนเพชรเกษม ระหว่างซอยเพชรเกษม 19 กับซอยเพชรเกษม 19/2 บริเวณหน้าโรงพยาบาลบางไผ่",
        "id_mrtline": "1",
        "mrtline": "เส้นทางรถไฟฟ้ามหานคร สายสีน้ำเงิน",
        "station_co": "",
        "dcode": "1022",
        "dname": "ภาษีเจริญ",
        "lat": "13.72473175",
        "lng": "100.4651442",
        "type": "MRT"
    },
    {
        "id_station": "BL34",
        "name": "สถานีบางหว้า",
        "location": "ถนนราชพฤกษ์ บริเวณด้านข้างสะพานยกระดับข้ามทางแยกต่างระดับเพชรเกษม",
        "id_mrtline": "1",
        "mrtline": "เส้นทางรถไฟฟ้ามหานคร สายสีน้ำเงิน",
        "station_co": "",
        "dcode": "1022",
        "dname": "ภาษีเจริญ",
        "lat": "13.72070709",
        "lng": "100.4578516",
        "type": "MRT"
    },
    {
        "id_station": "BL35",
        "name": "สถานีเพชรเกษม48",
        "location": "ถนนเพชรเกษม ระหว่างซอยเพชรเกษม 31/1 และ 46/2",
        "id_mrtline": "1",
        "mrtline": "เส้นทางรถไฟฟ้ามหานคร สายสีน้ำเงิน",
        "station_co": "",
        "dcode": "1022",
        "dname": "ภาษีเจริญ",
        "lat": "13.71541044",
        "lng": "100.4454476",
        "type": "MRT"
    },
    {
        "id_station": "BL36",
        "name": "สถานีภาษีเจริญ",
        "location": "ถนนเพชรเกษม หน้าศูนย์สรรพสินค้าซีคอนบางแค",
        "id_mrtline": "1",
        "mrtline": "เส้นทางรถไฟฟ้ามหานคร สายสีน้ำเงิน",
        "station_co": "",
        "dcode": "1022",
        "dname": "ภาษีเจริญ",
        "lat": "13.7128901",
        "lng": "100.4342906",
        "type": "MRT"
    },
    {
        "id_station": "BL37",
        "name": "สถานีบางแค",
        "location": "ถนนเพชรเกษม ระหว่างซอยเพชรเกษม 62/3 กับซอยเพชรเกษม 62/4",
        "id_mrtline": "1",
        "mrtline": "เส้นทางรถไฟฟ้ามหานคร สายสีน้ำเงิน",
        "station_co": "",
        "dcode": "1040",
        "dname": "บางแค",
        "lat": "13.71189286",
        "lng": "100.4222739",
        "type": "MRT"
    },
    {
        "id_station": "BL38",
        "name": "สถานีหลักสอง",
        "location": "ถนนเพชรเกษม อยู่ระหว่างซอยเพชรเกษม 80 และทางแยกต่างระดับเพชรเกษม ตัดกับถนนกาญจนาภิเษก",
        "id_mrtline": "1",
        "mrtline": "เส้นทางรถไฟฟ้ามหานคร สายสีน้ำเงิน",
        "station_co": "",
        "dcode": "1040",
        "dname": "บางแค",
        "lat": "13.7108635",
        "lng": "100.4094434",
        "type": "MRT"
    },
    {
        "id_station": "PP01",
        "name": "สถานีคลองบางไผ่",
        "location": "ถนนกาญจนาภิเษก บริเวณเยื้องปากซอยบ้านบัวทอง ด้านหน้าอาคารศูนย์ซ่อมบำรุงรถไฟฟ้าและอาคารจอดแล้วจร",
        "id_mrtline": "2",
        "mrtline": "เส้นทางรถไฟฟ้ามหานคร สายสีม่วง",
        "station_co": "",
        "dcode": "",
        "dname": "",
        "lat": "13.89238779",
        "lng": "100.4082208",
        "type": "MRT"
    },
    {
        "id_station": "PP02",
        "name": "สถานีตลาดบางใหญ่",
        "location": "ถนนกาญจนาภิเษก",
        "id_mrtline": "2",
        "mrtline": "เส้นทางรถไฟฟ้ามหานคร สายสีม่วง",
        "station_co": "",
        "dcode": "",
        "dname": "",
        "lat": "13.88103687",
        "lng": "100.4092903",
        "type": "MRT"
    },
    {
        "id_station": "PP03",
        "name": "สถานีสามแยกบางใหญ่",
        "location": "ถนนรัตนาธิเบศร์ หมู่ที่ 7 บ้านคลองบางเดื่อ ตำบลเสาธงหิน อำเภอบางใหญ่",
        "id_mrtline": "2",
        "mrtline": "เส้นทางรถไฟฟ้ามหานคร สายสีม่วง",
        "station_co": "",
        "dcode": "",
        "dname": "",
        "lat": "13.87469609",
        "lng": "100.4193558",
        "type": "MRT"
    },
    {
        "id_station": "PP04",
        "name": "สถานีบางพลู",
        "location": "ถนนรัตนาธิเบศร์ ยกระดับเหนือสะพานข้ามทางแยกบางพลู",
        "id_mrtline": "2",
        "mrtline": "เส้นทางรถไฟฟ้ามหานคร สายสีม่วง",
        "station_co": "",
        "dcode": "",
        "dname": "",
        "lat": "13.87575986",
        "lng": "100.4337962",
        "type": "MRT"
    },
    {
        "id_station": "PP05",
        "name": "สถานีบางรักใหญ่",
        "location": "ระหว่างทางแยกบางพลูกับทางแยกต่างระดับบางรักน้อย",
        "id_mrtline": "2",
        "mrtline": "เส้นทางรถไฟฟ้ามหานคร สายสีม่วง",
        "station_co": "",
        "dcode": "",
        "dname": "",
        "lat": "13.87660724",
        "lng": "100.4449415",
        "type": "MRT"
    },
    {
        "id_station": "PP06",
        "name": "สถานีบางรักน้อยท่าอิฐ",
        "location": "ถนนรัตนาธิเบศร์ ใกล้กับทางแยกไทรม้าและอาคารจอดแล้วจรสถานีบางรักน้อยท่าอิฐ",
        "id_mrtline": "2",
        "mrtline": "เส้นทางรถไฟฟ้ามหานคร สายสีม่วง",
        "station_co": "",
        "dcode": "",
        "dname": "",
        "lat": "13.87480634",
        "lng": "100.45595",
        "type": "MRT"
    },
    {
        "id_station": "PP07",
        "name": "สถานีไทรม้า",
        "location": "ถนนรัตนาธิเบศร์ บริเวณซอยตาหรั่งและหมู่บ้านซื่อตรง รัตนาธิเบศร์",
        "id_mrtline": "2",
        "mrtline": "เส้นทางรถไฟฟ้ามหานคร สายสีม่วง",
        "station_co": "",
        "dcode": "",
        "dname": "",
        "lat": "13.87047546",
        "lng": "100.4667018",
        "type": "MRT"
    },
    {
        "id_station": "PP08",
        "name": "สถานีสะพานพระนั่งเกล้า",
        "location": "ริมถนนรัตนาธิเบศร์ ใกล้กับทางขึ้นสะพานพระนั่งเกล้าฝั่งตะวันออก",
        "id_mrtline": "2",
        "mrtline": "เส้นทางรถไฟฟ้ามหานคร สายสีม่วง",
        "station_co": "",
        "dcode": "",
        "dname": "",
        "lat": "13.87030425",
        "lng": "100.4801163",
        "type": "MRT"
    },
    {
        "id_station": "PP09",
        "name": "สถานีแยกนนทบุรี 1",
        "location": "เหนือถนนรัตนาธิเบศร์ บริเวณกลางทางแยกรัตนาธิเบศร์-เลี่ยงเมืองนนทบุรี",
        "id_mrtline": "2",
        "mrtline": "เส้นทางรถไฟฟ้ามหานคร สายสีม่วง",
        "station_co": "",
        "dcode": "",
        "dname": "",
        "lat": "13.86593454",
        "lng": "100.4941053",
        "type": "MRT"
    },
    {
        "id_station": "PP10",
        "name": "สถานีบางกระสอ",
        "location": "เหนือถนนรัตนาธิเบศร์ บริเวณหน้าโรงเเรมแกรนด์ ริชมอนด์ และห้างสรรพสินค้าบิ๊กซี สาขารัตนาธิเบศร์",
        "id_mrtline": "2",
        "mrtline": "เส้นทางรถไฟฟ้ามหานคร สายสีม่วง",
        "station_co": "",
        "dcode": "",
        "dname": "",
        "lat": "13.86165786",
        "lng": "100.5046064",
        "type": "MRT"
    },
    {
        "id_station": "PP11",
        "name": "สถานีศูนย์ราชการนนทบุรี",
        "location": "เหนือถนนรัตนาธิเบศร์ หน้าศูนย์ราชการจังหวัดนนทบุรี",
        "id_mrtline": "2",
        "mrtline": "เส้นทางรถไฟฟ้ามหานคร สายสีม่วง",
        "station_co": "",
        "dcode": "",
        "dname": "",
        "lat": "13.86018661",
        "lng": "100.5130529",
        "type": "MRT"
    },
    {
        "id_station": "PP12",
        "name": "สถานีกระทรวงสาธารณสุข",
        "location": "เหนือถนนติวานนท์บริเวณบริเวณทางแยกศรีธัญญา",
        "id_mrtline": "2",
        "mrtline": "เส้นทางรถไฟฟ้ามหานคร สายสีม่วง",
        "station_co": "",
        "dcode": "",
        "dname": "",
        "lat": "13.8485518",
        "lng": "100.5147168",
        "type": "MRT"
    },
    {
        "id_station": "PP13",
        "name": "สถานีแยกติวานนท์",
        "location": "เหนือถนนกรุงเทพฯ-นนทบุรี ใกล้ทางแยกติวานนท์",
        "id_mrtline": "2",
        "mrtline": "เส้นทางรถไฟฟ้ามหานคร สายสีม่วง",
        "station_co": "",
        "dcode": "",
        "dname": "",
        "lat": "13.83953803",
        "lng": "100.514973",
        "type": "MRT"
    },
    {
        "id_station": "PP14",
        "name": "สถานีวงศ์สว่าง",
        "location": "บนถนนกรุงเทพฯ-นนทบุรี ใกล้ สี่เเยกวงศ์สว่าง",
        "id_mrtline": "2",
        "mrtline": "เส้นทางรถไฟฟ้ามหานคร สายสีม่วง",
        "station_co": "",
        "dcode": "1029",
        "dname": "บางซื่อ",
        "lat": "13.82986686",
        "lng": "100.5264918",
        "type": "MRT"
    },
    {
        "id_station": "PP15",
        "name": "สถานีบางซ่อน",
        "location": "ถนนกรุงเทพ-นนทบุรี ระหว่างซอยกรุงเทพ-นนทบุรี 23 และซอยกรุงเทพ-นนทบุรี 25",
        "id_mrtline": "2",
        "mrtline": "เส้นทางรถไฟฟ้ามหานคร สายสีม่วง",
        "station_co": "",
        "dcode": "1029",
        "dname": "บางซื่อ",
        "lat": "13.82010348",
        "lng": "100.5324499",
        "type": "MRT"
    },
    {
        "id_station": "PP16",
        "name": "สถานีเตาปูน",
        "location": "แยกเตาปูน (จุดบรรจบระหว่างถนนประชาราษฎร์ สาย 2 กับถนนกรุงเทพ-นนทบุรี)",
        "id_mrtline": "2",
        "mrtline": "เส้นทางรถไฟฟ้ามหานคร สายสีม่วง",
        "station_co": "",
        "dcode": "1029",
        "dname": "บางซื่อ",
        "lat": "13.80614838",
        "lng": "100.5307586",
        "type": "MRT"
    },
    {
        "id_station": "YL01",
        "name": "สถานีลาดพร้าว",
        "location": "ถนนลาดพร้าว บริเวณทิศตะวันตกของสี่แยกรัชดา-ลาดพร้าว",
        "id_mrtline": "3",
        "mrtline": "เส้นทางรถไฟฟ้ามหานคร สายสีเหลือง",
        "station_co": "สถานีเชื่อมต่อเส้นทางรถไฟฟ้ามหานคร สายสีน้ำเงิน สถานี BL15",
        "dcode": "1030",
        "dname": "จตุจักร",
        "lat": "13.80697302",
        "lng": "100.5747539",
        "type": "MRT"
    },
    {
        "id_station": "YL02",
        "name": "สถานีภาวนา",
        "location": "ตั้งอยู่บนถนนลาดพร้าว ระหว่างปากซอยลาดพร้าว 41 (ภาวนา) กับปากซอยลาดพร้าว 41/1",
        "id_mrtline": "3",
        "mrtline": "เส้นทางรถไฟฟ้ามหานคร สายสีเหลือง",
        "station_co": "",
        "dcode": "1017",
        "dname": "ห้วยขวาง",
        "lat": "13.80013312",
        "lng": "100.5841789",
        "type": "MRT"
    },
    {
        "id_station": "YL03",
        "name": "สถานีโชคชัย 4",
        "location": "ถนนลาดพร้าว บริเวณทางแยกโชคชัย 4 (จุดตัดกับถนนโชคชัย 4",
        "id_mrtline": "3",
        "mrtline": "เส้นทางรถไฟฟ้ามหานคร สายสีเหลือง",
        "station_co": "",
        "dcode": "1045",
        "dname": "วังทองหลาง",
        "lat": "13.79423668",
        "lng": "100.5944237",
        "type": "MRT"
    },
    {
        "id_station": "YL04",
        "name": "สถานีลาดพร้าว 71",
        "location": "ถนนลาดพร้าว บริเวณจุดตัดกับถนนประดิษฐ์มนูธรรม",
        "id_mrtline": "3",
        "mrtline": "เส้นทางรถไฟฟ้ามหานคร สายสีเหลือง",
        "station_co": "",
        "dcode": "1045",
        "dname": "วังทองหลาง",
        "lat": "13.78703755",
        "lng": "100.6075445",
        "type": "MRT"
    },
    {
        "id_station": "YL05",
        "name": "สถานีลาดพร้าว 83",
        "location": "ถนนลาดพร้าว บริเวณหน้าปากซอยลาดพร้าว 85 (อุทิศ 2) และปากซอยลาดพร้าว 100",
        "id_mrtline": "3",
        "mrtline": "เส้นทางรถไฟฟ้ามหานคร สายสีเหลือง",
        "station_co": "",
        "dcode": "1045",
        "dname": "วังทองหลาง",
        "lat": "13.78367139",
        "lng": "100.6136253",
        "type": "MRT"
    },
    {
        "id_station": "YL06",
        "name": "สถานีมหาดไทย",
        "location": "ถนนลาดพร้าว บริเวณหน้าปากซอยลาดพร้าว 95 (ปรางค์ทิพย์)",
        "id_mrtline": "3",
        "mrtline": "เส้นทางรถไฟฟ้ามหานคร สายสีเหลือง",
        "station_co": "",
        "dcode": "1045",
        "dname": "วังทองหลาง",
        "lat": "13.77843808",
        "lng": "100.6232072",
        "type": "MRT"
    },
    {
        "id_station": "YL07",
        "name": "สถานีลาดพร้าว 101",
        "location": "",
        "id_mrtline": "3",
        "mrtline": "เส้นทางรถไฟฟ้ามหานคร สายสีเหลือง",
        "station_co": "",
        "dcode": "1006",
        "dname": "บางกะปิ",
        "lat": "13.77469684",
        "lng": "100.6299138",
        "type": "MRT"
    },
    {
        "id_station": "YL08",
        "name": "สถานีบางกะปิ",
        "location": "ถนนลาดพร้าว บริเวณหน้าปากซอยลาดพร้าว 115",
        "id_mrtline": "3",
        "mrtline": "เส้นทางรถไฟฟ้ามหานคร สายสีเหลือง",
        "station_co": "",
        "dcode": "1006",
        "dname": "บางกะปิ",
        "lat": "13.76903632",
        "lng": "100.6397694",
        "type": "MRT"
    },
    {
        "id_station": "YL09",
        "name": "สถานีแยกลำสาลี",
        "location": "ถนนศรีนครินทร์ บริเวณทิศใต้ของทางแยกลำสาลี",
        "id_mrtline": "3",
        "mrtline": "เส้นทางรถไฟฟ้ามหานคร สายสีเหลือง",
        "station_co": "สถานีเชื่อมตอเสนทางเดิน เรือโดยสารคลองแสนแสบ ท่าเดอะมอลล์ บางกะปิ",
        "dcode": "1006",
        "dname": "บางกะปิ",
        "lat": "13.76181247",
        "lng": "100.6454616",
        "type": "MRT"
    },
    {
        "id_station": "YL10",
        "name": "สถานีศรีกรีฑา",
        "location": "ถนนศรีนครินทร์ บริเวณทิศใต้ของทางแยกต่างระดับกรุงเทพกรีฑา",
        "id_mrtline": "3",
        "mrtline": "เส้นทางรถไฟฟ้ามหานคร สายสีเหลือง",
        "station_co": "",
        "dcode": "1006",
        "dname": "บางกะปิ",
        "lat": "13.75040076",
        "lng": "100.6448085",
        "type": "MRT"
    },
    {
        "id_station": "YL11",
        "name": "สถานีหัวหมาก",
        "location": "",
        "id_mrtline": "3",
        "mrtline": "เส้นทางรถไฟฟ้ามหานคร สายสีเหลือง",
        "station_co": "สถานีเชื่อมต่อเส้นทางรถไฟฟ้าแอร์พอร์ต เรล ลิงก์ (Airport Rail Link) สถานีหัวหมาก",
        "dcode": "1034",
        "dname": "สวนหลวง",
        "lat": "13.73614434",
        "lng": "100.6410568",
        "type": "MRT"
    },
    {
        "id_station": "YL12",
        "name": "สถานีกลันตัน",
        "location": "ถนนศรีนครินทร์ บริเวณเชิงสะพานข้ามคลองโคกวัด",
        "id_mrtline": "3",
        "mrtline": "เส้นทางรถไฟฟ้ามหานคร สายสีเหลือง",
        "station_co": "",
        "dcode": "1034",
        "dname": "สวนหลวง",
        "lat": "13.72527482",
        "lng": "100.6417763",
        "type": "MRT"
    },
    {
        "id_station": "YL13",
        "name": "สถานีศรีนุช",
        "location": "ถนนศรีนครินทร์ ด้านใต้ของทางแยกสวนหลวงหรือทางแยกศรีนุช",
        "id_mrtline": "3",
        "mrtline": "เส้นทางรถไฟฟ้ามหานคร สายสีเหลือง",
        "station_co": "",
        "dcode": "1034",
        "dname": "สวนหลวง",
        "lat": "13.71111235",
        "lng": "100.6442758",
        "type": "MRT"
    },
    {
        "id_station": "YL14",
        "name": "สถานีศรีนครินทร์ 38",
        "location": "ถนนศรีนครินทร์ บริเวณปากซอยศรีนครินทร์ 38 (หมู่บ้านมิตรภาพ)",
        "id_mrtline": "3",
        "mrtline": "เส้นทางรถไฟฟ้ามหานคร สายสีเหลือง",
        "station_co": "",
        "dcode": "1032",
        "dname": "ประเวศ",
        "lat": "13.70113658",
        "lng": "100.6465176",
        "type": "MRT"
    },
    {
        "id_station": "YL15",
        "name": "สถานีสวนหลวง ร.9",
        "location": "ถนนศรีนครินทร์ บริเวณปากซอยศรีนครินทร์ 53 (หวังงาม)",
        "id_mrtline": "3",
        "mrtline": "เส้นทางรถไฟฟ้ามหานคร สายสีเหลือง",
        "station_co": "",
        "dcode": "1032",
        "dname": "ประเวศ",
        "lat": "13.69086507",
        "lng": "100.6470192",
        "type": "MRT"
    },
    {
        "id_station": "YL16",
        "name": "สถานีศรีอุดม",
        "location": "ถนนศรีนครินทร์ บริเวณทางทิศตะวันออกเฉียงใต้ของทางแยกศรีอุดมหรือทางแยกหนองบอน",
        "id_mrtline": "3",
        "mrtline": "เส้นทางรถไฟฟ้ามหานคร สายสีเหลือง",
        "station_co": "",
        "dcode": "1032",
        "dname": "ประเวศ",
        "lat": "13.67664325",
        "lng": "100.6462085",
        "type": "MRT"
    },
    {
        "id_station": "YL17",
        "name": "สถานีศรีเอี่ยม",
        "location": "ถนนศรีนครินทร์ บริเวณข้างสะพานทางแยกต่างระดับศรีเอี่ยม",
        "id_mrtline": "3",
        "mrtline": "เส้นทางรถไฟฟ้ามหานคร สายสีเหลือง",
        "station_co": "",
        "dcode": "1046",
        "dname": "คลองสามวา",
        "lat": "13.66761207",
        "lng": "100.6450458",
        "type": "MRT"
    },
    {
        "id_station": "YL18",
        "name": "สถานีศรีลาซาล",
        "location": "ถนนศรีนครินทร์ บริเวณทางใต้ของทางแยกศรีนครินทร์–ลาซาลหรือทางแยกศิครินทร์",
        "id_mrtline": "3",
        "mrtline": "เส้นทางรถไฟฟ้ามหานคร สายสีเหลือง",
        "station_co": "",
        "dcode": "1046",
        "dname": "คลองสามวา",
        "lat": "13.65496793",
        "lng": "100.6421205",
        "type": "MRT"
    },
    {
        "id_station": "YL19",
        "name": "สถานีศรีแบริ่ง",
        "location": "ถนนศรีนครินทร์ บริเวณปากซอยศรีด่าน 13 ใกล้กับทางแยกศรีแบริ่ง",
        "id_mrtline": "3",
        "mrtline": "เส้นทางรถไฟฟ้ามหานคร สายสีเหลือง",
        "station_co": "",
        "dcode": "",
        "dname": "",
        "lat": "13.64355462",
        "lng": "100.6362095",
        "type": "MRT"
    },
    {
        "id_station": "YL20",
        "name": "สถานีศรีด่าน",
        "location": "ตำบลสำโรงเหนือ อำเภอเมืองสมุทรปราการ จังหวัดสมุทรปราการ",
        "id_mrtline": "3",
        "mrtline": "เส้นทางรถไฟฟ้ามหานคร สายสีเหลือง",
        "station_co": "",
        "dcode": "",
        "dname": "",
        "lat": "13.63320965",
        "lng": "100.6300014",
        "type": "MRT"
    },
    {
        "id_station": "YL21",
        "name": "สถานีศรีเทพา",
        "location": "หมู่ที่ 3 บ้านทิพวัล ตำบลเทพารักษ์ อำเภอเมืองสมุทรปราการ จังหวัดสมุทรปราการ",
        "id_mrtline": "3",
        "mrtline": "เส้นทางรถไฟฟ้ามหานคร สายสีเหลือง",
        "station_co": "",
        "dcode": "",
        "dname": "",
        "lat": "13.62994906",
        "lng": "100.6227147",
        "type": "MRT"
    },
    {
        "id_station": "YL22",
        "name": "สถานีทิพวัล",
        "location": "หมู่ที่ 3 บ้านทิพวัล ตำบลเทพารักษ์ อำเภอเมืองสมุทรปราการ จังหวัดสมุทรปราการ",
        "id_mrtline": "3",
        "mrtline": "เส้นทางรถไฟฟ้ามหานคร สายสีเหลือง",
        "station_co": "",
        "dcode": "",
        "dname": "",
        "lat": "13.63677534",
        "lng": "100.6099328",
        "type": "MRT"
    },
    {
        "id_station": "YL23",
        "name": "สถานีสำโรง",
        "location": "พื้นที่ตำบลเทพารักษ์ อำเภอเมืองสมุทรปราการ จังหวัดสมุทรปราการ",
        "id_mrtline": "3",
        "mrtline": "เส้นทางรถไฟฟ้ามหานคร สายสีเหลือง",
        "station_co": "สถานีเชื่อมต่อเส้นทางเส้นทางรถไฟฟ้าบีทีเอส สายสุขุมวิท (สีเขียวอ่อน)สถานี E15",
        "dcode": "",
        "dname": "",
        "lat": "13.64500554",
        "lng": "100.5966143",
        "type": "MRT"
    }
]